{"meta":{"code":200,"requestId":"5ecfe7acc546f3001befd3cf"},"response":{"suggestedFilters":{"header":"Tap to show:","filters":[{"name":"Open now","key":"openNow"}]},"headerLocation":"Dansaert","headerFullLocation":"Dansaert, Brussels","headerLocationGranularity":"neighborhood","query":"residence hall","totalResults":11,"suggestedBounds":{"ne":{"lat":50.86800001800002,"lng":4.37845700539577},"sw":{"lat":50.831999981999985,"lng":4.321542994604229}},"groups":[{"type":"Recommended Places","name":"recommended","items":[{"reasons":{"count":0,"items":[{"summary":"This spot is popular","type":"general","reasonName":"globalInteractionReason"}]},"venue":{"id":"4f9e6e97e4b046b0cdc9b5b8","name":"Br(ik Koten","location":{"address":"Sint-Katelijnestraat \/ Rue Sainte-Catherine","lat":50.849722048201556,"lng":4.348142707759444,"labeledLatLngs":[{"label":"display","lat":50.849722048201556,"lng":4.348142707759444}],"distance":134,"postalCode":"1000","cc":"BE","city":"Brussel","state":"Brussels Hoofdstedelijk Gewest","country":"België","formattedAddress":["Sint-Katelijnestraat \/ Rue Sainte-Catherine","1000 Brussel","België"]},"categories":[{"id":"4bf58dd8d48988d1a3941735","name":"College Residence Hall","pluralName":"College Residence Halls","shortName":"Residence Hall","icon":{"prefix":"https:\/\/ss3.4sqi.net\/img\/categories_v2\/education\/residencehall_","suffix":".png"},"primary":true}],"photos":{"count":0,"groups":[]}},"referralId":"e-0-4f9e6e97e4b046b0cdc9b5b8-0"},{"reasons":{"count":0,"items":[{"summary":"This spot is popular","type":"general","reasonName":"globalInteractionReason"}]},"venue":{"id":"4feecda0e4b00e3bf85c3ae6","name":"Br(ik Koten","location":{"address":"Vlaamsesteenweg 61","lat":50.85255019699102,"lng":4.3460197507621245,"labeledLatLngs":[{"label":"display","lat":50.85255019699102,"lng":4.3460197507621245}],"distance":398,"postalCode":"1000","cc":"BE","city":"Brussel","state":"Brussels Hoofdstedelijk Gewest","country":"België","formattedAddress":["Vlaamsesteenweg 61","1000 Brussel","België"]},"categories":[{"id":"4bf58dd8d48988d1a3941735","name":"College Residence Hall","pluralName":"College Residence Halls","shortName":"Residence Hall","icon":{"prefix":"https:\/\/ss3.4sqi.net\/img\/categories_v2\/education\/residencehall_","suffix":".png"},"primary":true}],"photos":{"count":0,"groups":[]}},"referralId":"e-0-4feecda0e4b00e3bf85c3ae6-1"},{"reasons":{"count":0,"items":[{"summary":"This spot is popular","type":"general","reasonName":"globalInteractionReason"}]},"venue":{"id":"4feec712e4b085aeb2f7f2f8","name":"Br(ik Koten","location":{"address":"Pletinckxstraat 50,52","lat":50.847990279054706,"lng":4.344484055441759,"labeledLatLngs":[{"label":"display","lat":50.847990279054706,"lng":4.344484055441759}],"distance":447,"postalCode":"1000","cc":"BE","city":"Brussel","state":"Brussels Hoofdstedelijk Gewest","country":"België","formattedAddress":["Pletinckxstraat 50,52","1000 Brussel","België"]},"categories":[{"id":"4bf58dd8d48988d1a3941735","name":"College Residence Hall","pluralName":"College Residence Halls","shortName":"Residence Hall","icon":{"prefix":"https:\/\/ss3.4sqi.net\/img\/categories_v2\/education\/residencehall_","suffix":".png"},"primary":true}],"photos":{"count":0,"groups":[]}},"referralId":"e-0-4feec712e4b085aeb2f7f2f8-2"},{"reasons":{"count":0,"items":[{"summary":"This spot is popular","type":"general","reasonName":"globalInteractionReason"}]},"venue":{"id":"4feeca90e4b0a66e405279b5","name":"Br(ik Koten","location":{"address":"Duivenkot 3","lat":50.85249928178426,"lng":4.355069641839072,"labeledLatLngs":[{"label":"display","lat":50.85249928178426,"lng":4.355069641839072}],"distance":452,"postalCode":"1000","cc":"BE","city":"Brussel","state":"Brussels Hoofdstedelijk Gewest","country":"België","formattedAddress":["Duivenkot 3","1000 Brussel","België"]},"categories":[{"id":"4bf58dd8d48988d1a3941735","name":"College Residence Hall","pluralName":"College Residence Halls","shortName":"Residence Hall","icon":{"prefix":"https:\/\/ss3.4sqi.net\/img\/categories_v2\/education\/residencehall_","suffix":".png"},"primary":true}],"photos":{"count":0,"groups":[]}},"referralId":"e-0-4feeca90e4b0a66e405279b5-3"},{"reasons":{"count":0,"items":[{"summary":"This spot is popular","type":"general","reasonName":"globalInteractionReason"}]},"venue":{"id":"4feec660e4b0e7487ebff3ff","name":"Br(ik Koten","location":{"address":"Van Arteveldestraat 68,72 & 78","lat":50.847402869748954,"lng":4.344988743218692,"labeledLatLngs":[{"label":"display","lat":50.847402869748954,"lng":4.344988743218692}],"distance":455,"postalCode":"1000","cc":"BE","city":"Brussel","state":"Brussels Hoofdstedelijk Gewest","country":"België","formattedAddress":["Van Arteveldestraat 68,72 & 78","1000 Brussel","België"]},"categories":[{"id":"4bf58dd8d48988d1a3941735","name":"College Residence Hall","pluralName":"College Residence Halls","shortName":"Residence Hall","icon":{"prefix":"https:\/\/ss3.4sqi.net\/img\/categories_v2\/education\/residencehall_","suffix":".png"},"primary":true}],"photos":{"count":0,"groups":[]}},"referralId":"e-0-4feec660e4b0e7487ebff3ff-4"},{"reasons":{"count":0,"items":[{"summary":"This spot is popular","type":"general","reasonName":"globalInteractionReason"}]},"venue":{"id":"4faa1169e4b0afe1f1d7844d","name":"B-02-09","location":{"lat":50.84898207785953,"lng":4.357106956661634,"labeledLatLngs":[{"label":"display","lat":50.84898207785953,"lng":4.357106956661634}],"distance":512,"postalCode":"1000","cc":"BE","city":"Brussel","state":"Brussels Hoofdstedelijk Gewest","country":"België","formattedAddress":["1000 Brussel","België"]},"categories":[{"id":"4bf58dd8d48988d1a3941735","name":"College Residence Hall","pluralName":"College Residence Halls","shortName":"Residence Hall","icon":{"prefix":"https:\/\/ss3.4sqi.net\/img\/categories_v2\/education\/residencehall_","suffix":".png"},"primary":true}],"photos":{"count":0,"groups":[]}},"referralId":"e-0-4faa1169e4b0afe1f1d7844d-5"},{"reasons":{"count":0,"items":[{"summary":"This spot is popular","type":"general","reasonName":"globalInteractionReason"}]},"venue":{"id":"4feec946e4b06418e13f3637","name":"Koten - Broekstraat","location":{"address":"Broekstraat 9,11","lat":50.850642845267664,"lng":4.357888890414612,"labeledLatLngs":[{"label":"display","lat":50.850642845267664,"lng":4.357888890414612}],"distance":559,"postalCode":"1000","cc":"BE","city":"Brussel","state":"Brussels Hoofdstedelijk Gewest","country":"België","formattedAddress":["Broekstraat 9,11","1000 Brussel","België"]},"categories":[{"id":"4bf58dd8d48988d1a3941735","name":"College Residence Hall","pluralName":"College Residence Halls","shortName":"Residence Hall","icon":{"prefix":"https:\/\/ss3.4sqi.net\/img\/categories_v2\/education\/residencehall_","suffix":".png"},"primary":true}],"photos":{"count":0,"groups":[]}},"referralId":"e-0-4feec946e4b06418e13f3637-6"},{"reasons":{"count":0,"items":[{"summary":"This spot is popular","type":"general","reasonName":"globalInteractionReason"}]},"venue":{"id":"55546d3b498e3041cac0d643","name":"Br(ik Koten","location":{"address":"Spaarstraat 20","lat":50.85524026188563,"lng":4.353228876903667,"labeledLatLngs":[{"label":"display","lat":50.85524026188563,"lng":4.353228876903667}],"distance":625,"cc":"BE","city":"Brussel","state":"Brussels Hoofdstedelijk Gewest","country":"België","formattedAddress":["Spaarstraat 20","Brussel","België"]},"categories":[{"id":"4bf58dd8d48988d1a3941735","name":"College Residence Hall","pluralName":"College Residence Halls","shortName":"Residence Hall","icon":{"prefix":"https:\/\/ss3.4sqi.net\/img\/categories_v2\/education\/residencehall_","suffix":".png"},"primary":true}],"photos":{"count":0,"groups":[]}},"referralId":"e-0-55546d3b498e3041cac0d643-7"},{"reasons":{"count":0,"items":[{"summary":"This spot is popular","type":"general","reasonName":"globalInteractionReason"}]},"venue":{"id":"4feec586e4b01127cbb94521","name":"Br(ik Koten","location":{"address":"Washuisstraat 4","lat":50.84617131787908,"lng":4.3425730520745764,"labeledLatLngs":[{"label":"display","lat":50.84617131787908,"lng":4.3425730520745764}],"distance":673,"postalCode":"1000","cc":"BE","city":"Brussel","state":"Brussels Hoofdstedelijk Gewest","country":"België","formattedAddress":["Washuisstraat 4","1000 Brussel","België"]},"categories":[{"id":"4bf58dd8d48988d1a3941735","name":"College Residence Hall","pluralName":"College Residence Halls","shortName":"Residence Hall","icon":{"prefix":"https:\/\/ss3.4sqi.net\/img\/categories_v2\/education\/residencehall_","suffix":".png"},"primary":true}],"photos":{"count":0,"groups":[]}},"referralId":"e-0-4feec586e4b01127cbb94521-8"},{"reasons":{"count":0,"items":[{"summary":"This spot is popular","type":"general","reasonName":"globalInteractionReason"}]},"venue":{"id":"4feeb1bee4b0e41ea9853242","name":"Br(ik Koten","location":{"address":"Anderlechtsesteenweg 96","lat":50.84592580922309,"lng":4.342485459114701,"labeledLatLngs":[{"label":"display","lat":50.84592580922309,"lng":4.342485459114701}],"distance":696,"postalCode":"1000","cc":"BE","city":"Brussel","state":"Brussels Hoofdstedelijk Gewest","country":"België","formattedAddress":["Anderlechtsesteenweg 96","1000 Brussel","België"]},"categories":[{"id":"4bf58dd8d48988d1a3941735","name":"College Residence Hall","pluralName":"College Residence Halls","shortName":"Residence Hall","icon":{"prefix":"https:\/\/ss3.4sqi.net\/img\/categories_v2\/education\/residencehall_","suffix":".png"},"primary":true}],"photos":{"count":0,"groups":[]}},"referralId":"e-0-4feeb1bee4b0e41ea9853242-9"},{"reasons":{"count":0,"items":[{"summary":"This spot is popular","type":"general","reasonName":"globalInteractionReason"}]},"venue":{"id":"57f88f1a498e4abf0de4c7ad","name":"Art Upkot","location":{"address":"Rue des Palais 116","lat":50.86289152686855,"lng":4.366924333793228,"labeledLatLngs":[{"label":"display","lat":50.86289152686855,"lng":4.366924333793228}],"distance":1863,"postalCode":"1030","cc":"BE","city":"Schaarbeek","state":"Brussels Hoofdstedelijk Gewest","country":"België","formattedAddress":["Rue des Palais 116","1030 Schaarbeek","België"]},"categories":[{"id":"4bf58dd8d48988d1a3941735","name":"College Residence Hall","pluralName":"College Residence Halls","shortName":"Residence Hall","icon":{"prefix":"https:\/\/ss3.4sqi.net\/img\/categories_v2\/education\/residencehall_","suffix":".png"},"primary":true}],"photos":{"count":0,"groups":[]}},"referralId":"e-0-57f88f1a498e4abf0de4c7ad-10"}]}]}}